[
  { "id": "to_1", "type": "ev", "title": "Toledo - Plaza de Zocodover", "coordinate": { "latitude": 39.8628, "longitude": -4.0273 } },
  { "id": "to_2", "type": "ev", "title": "Toledo - Estación Renfe", "coordinate": { "latitude": 39.864, "longitude": -4.034 } },
  { "id": "to_3", "type": "ev", "title": "Toledo - Parking Safont", "coordinate": { "latitude": 39.856, "longitude": -4.034 } },
  { "id": "to_4", "type": "ev", "title": "Toledo - Hospital Virgen de la Salud", "coordinate": { "latitude": 39.855, "longitude": -4.019 } },
  { "id": "to_5", "type": "ev", "title": "Toledo - Centro Comercial Luz del Tajo", "coordinate": { "latitude": 39.883, "longitude": -4.026 } },
  { "id": "to_6", "type": "ev", "title": "Talavera de la Reina - Plaza del Pan", "coordinate": { "latitude": 39.957, "longitude": -4.830 } },
  { "id": "to_7", "type": "ev", "title": "Talavera - Hospital Nuestra Señora del Prado", "coordinate": { "latitude": 39.960, "longitude": -4.830 } },
  { "id": "to_8", "type": "ev", "title": "Talavera - Estación Autobuses", "coordinate": { "latitude": 39.958, "longitude": -4.831 } },
  { "id": "to_9", "type": "ev", "title": "Talavera - Parking Centro Comercial El Golf", "coordinate": { "latitude": 39.959, "longitude": -4.832 } },
  { "id": "to_10", "type": "ev", "title": "Seseña - Parking Centro Comercial Plaza Seseña", "coordinate": { "latitude": 40.063, "longitude": -3.774 } },
  { "id": "to_11", "type": "ev", "title": "Seseña - Estación de Servicio", "coordinate": { "latitude": 40.064, "longitude": -3.773 } },
  { "id": "to_12", "type": "ev", "title": "Illescas - Plaza Mayor", "coordinate": { "latitude": 40.082, "longitude": -3.854 } },
  { "id": "to_13", "type": "ev", "title": "Illescas - Centro Comercial", "coordinate": { "latitude": 40.083, "longitude": -3.853 } },
  { "id": "to_14", "type": "ev", "title": "Consuegra - Plaza de España", "coordinate": { "latitude": 39.467, "longitude": -3.779 } },
  { "id": "to_15", "type": "ev", "title": "Consuegra - Ayuntamiento", "coordinate": { "latitude": 39.468, "longitude": -3.780 } },
  { "id": "to_16", "type": "ev", "title": "Talavera la Nueva - Gasolinera", "coordinate": { "latitude": 39.965, "longitude": -4.824 } },
  { "id": "to_17", "type": "ev", "title": "Toledo - Universidad", "coordinate": { "latitude": 39.861, "longitude": -4.021 } },
  { "id": "to_18", "type": "ev", "title": "Toledo - Parking Mercado", "coordinate": { "latitude": 39.860, "longitude": -4.027 } },
  { "id": "to_19", "type": "ev", "title": "Toledo - Estadio Salto del Caballo", "coordinate": { "latitude": 39.874, "longitude": -4.010 } },
  { "id": "to_20", "type": "ev", "title": "Toledo - Hospital Provincial", "coordinate": { "latitude": 39.858, "longitude": -4.018 } },
  { "id": "to_21", "type": "ev", "title": "Yuncos - Plaza del Ayuntamiento", "coordinate": { "latitude": 40.017, "longitude": -3.761 } },
  { "id": "to_22", "type": "ev", "title": "Yuncos - Estación de Servicio", "coordinate": { "latitude": 40.018, "longitude": -3.762 } }
]
